rosbagTimestamp,header,seq,stamp,secs,nsecs,frame_id,throttleRelayEnabled,autonomousEnabled,runstopMotionEnabled,steeringCommander,steering,throttleCommander,throttle,frontBrakeCommander,frontBrake
1656181689749863227,,34914,,1656181689,736081277,"""mocap""",False,False,False,'',0.0,'',-0.0,'',0.0
1656181689795431801,,34915,,1656181689,786064836,"""mocap""",False,False,False,'',0.0,'',-0.0,'',0.0
1656181689845403392,,34916,,1656181689,816249527,"""mocap""",False,False,False,'',0.0,'',-0.0,'',0.0
1656181689895849515,,34917,,1656181689,816249527,"""mocap""",False,False,False,'',0.0,'',-0.0,'',0.0
1656181689947267423,,34918,,1656181689,936043512,"""mocap""",False,False,False,'',0.0,'',-0.0,'',0.0
1656181689995974298,,34919,,1656181689,936043512,"""mocap""",False,False,False,'',0.0,'',-0.0,'',0.0
1656181690046070911,,34920,,1656181689,936043512,"""mocap""",False,False,False,'',0.0,'',-0.0,'',0.0
1656181690099877414,,34921,,1656181690,86068521,"""mocap""",False,False,False,'',0.0,'',-0.0,'',0.0
1656181690146285321,,34922,,1656181690,116051544,"""mocap""",False,False,False,'',0.0,'',-0.0,'',0.0
1656181690198943333,,34923,,1656181690,186050705,"""mocap""",False,False,False,'',0.0,'',-0.0,'',0.0
1656181690246540788,,34924,,1656181690,236063413,"""mocap""",False,False,False,'',0.0,'',-0.0,'',0.0
1656181690298861357,,34925,,1656181690,286057209,"""mocap""",False,False,False,'',0.0,'',-0.0,'',0.0
1656181690347375555,,34926,,1656181690,336063517,"""mocap""",False,False,False,'',0.0,'',-0.0,'',0.0
1656181690397592617,,34927,,1656181690,386051233,"""mocap""",False,False,False,'',0.0,'',-0.0,'',0.0
1656181690444375472,,34928,,1656181690,436049573,"""mocap""",False,False,False,'',0.0,'',-0.0,'',0.0
1656181690450756490,,34929,,1656181690,446093184,"""mocap""",False,False,False,'',0.0,'',-0.0,'',0.0
1656181690458622353,,34930,,1656181690,456094810,"""mocap""",False,False,False,'',0.0,'',-0.0,'',0.0
1656181690465696017,,34931,,1656181690,456094810,"""mocap""",False,False,False,'',0.0,'',-0.0,'',0.0
1656181690473683449,,34932,,1656181690,466116629,"""mocap""",False,False,False,'',0.0,'',-0.0,'',0.0
1656181690480935963,,34933,,1656181690,476081615,"""mocap""",False,False,False,'',0.0,'',-0.0,'',0.0
1656181690488961219,,34934,,1656181690,486063177,"""mocap""",False,False,False,'',0.0,'',-0.0,'',0.0
1656181690495849249,,34935,,1656181690,486063177,"""mocap""",False,False,False,'',0.0,'',-0.0,'',0.0
1656181690503868362,,34936,,1656181690,496112996,"""mocap""",False,False,False,'',0.0,'',-0.0,'',0.0
1656181690513021213,,34937,,1656181690,506059326,"""mocap""",False,False,False,'',0.0,'',-0.0,'',0.0
1656181690519415030,,34938,,1656181690,516403419,"""mocap""",False,False,False,'',0.0,'',-0.0,'',0.0
1656181690525814608,,34939,,1656181690,516403419,"""mocap""",False,False,False,'',0.0,'',0.00837733130902052,'',0.0
1656181690539870799,,34940,,1656181690,536083469,"""mocap""",False,False,False,'',0.0,'',0.028138065710663795,'',0.0
1656181690548597598,,34941,,1656181690,546078439,"""mocap""",False,False,False,'',0.0,'',0.03592028468847275,'',0.0
1656181690555786911,,34942,,1656181690,546078439,"""mocap""",False,False,False,'',0.0,'',0.039162877947092056,'',0.0
1656181690570865415,,34943,,1656181690,566064092,"""mocap""",False,False,False,'',0.0,'',0.0475173182785511,'',0.0
1656181690621332400,,34944,,1656181690,616119009,"""mocap""",False,False,False,'',0.0,'',0.0475173182785511,'',0.0
1656181690646070319,,34945,,1656181690,636122389,"""mocap""",False,False,False,'',0.0,'',0.045686207711696625,'',0.0
1656181690655852008,,34946,,1656181690,646125872,"""mocap""",False,False,False,'',0.0,'',0.04301583766937256,'',0.0
1656181690660925686,,34947,,1656181690,656211915,"""mocap""",False,False,False,'',0.0,'',0.0399639867246151,'',0.0
1656181690669077119,,34948,,1656181690,666082916,"""mocap""",False,False,False,'',0.0,'',0.036835841834545135,'',0.0
1656181690675802300,,34949,,1656181690,666082916,"""mocap""",False,False,False,'',0.0,'',0.03019806556403637,'',0.0
1656181690690688355,,34950,,1656181690,686068249,"""mocap""",False,False,False,'',0.0,'',0.027260659262537956,'',0.0
1656181690705747691,,34951,,1656181690,696081939,"""mocap""",False,False,False,'',0.0,'',0.02073732763528824,'',0.0
1656181690735721882,,34952,,1656181690,726539655,"""mocap""",False,False,False,'',0.0,'',0.01837214268743992,'',0.0
1656181690780992659,,34953,,1656181690,776007718,"""mocap""",False,False,False,'',0.0,'',0.031266212463378906,'',0.0
1656181690804080900,,34954,,1656181690,796338174,"""mocap""",False,False,False,'',0.0,'',0.09245582669973373,'',0.0
1656181690817584542,,34955,,1656181690,806058774,"""mocap""",False,False,False,'',0.0,'',0.10111545026302338,'',0.0
1656181690825746152,,34956,,1656181690,816059600,"""mocap""",False,False,False,'',0.0,'',0.14780877530574799,'',0.0
1656181690833713232,,34957,,1656181690,826109259,"""mocap""",False,False,False,'',0.0,'',0.1594439595937729,'',0.0
1656181690840849392,,34958,,1656181690,836083749,"""mocap""",False,False,False,'',0.0,'',0.19469283521175385,'',0.0
1656181690848759352,,34959,,1656181690,846126208,"""mocap""",False,False,False,'',0.0,'',0.20564134418964386,'',0.0
1656181690855838360,,34960,,1656181690,846126208,"""mocap""",False,False,False,'',0.0,'',0.23776207864284515,'',0.0
1656181690863957185,,34961,,1656181690,856068890,"""mocap""",False,False,False,'',0.0,'',0.24790948629379272,'',0.0
1656181690870660478,,34962,,1656181690,866075892,"""mocap""",False,False,False,'',0.0,'',0.2750709652900696,'',0.0
1656181690878865608,,34963,,1656181690,876093071,"""mocap""",False,False,False,'',0.0,'',0.2826242744922638,'',0.0
1656181690885784614,,34964,,1656181690,876093071,"""mocap""",False,False,False,'',0.0,'',0.29269540309906006,'',0.0
1656181690893457164,,34965,,1656181690,886064393,"""mocap""",False,False,False,'',0.0,'',0.30299538373947144,'',0.0
1656181690900617773,,34966,,1656181690,896226021,"""mocap""",False,False,False,'',0.0,'',0.3124561309814453,'',0.0
1656181690908527188,,34967,,1656181690,906080670,"""mocap""",False,False,False,'',0.0,'',0.3207724094390869,'',0.0
1656181690916056856,,34968,,1656181690,906080670,"""mocap""",False,False,False,'',0.0,'',0.3277153968811035,'',0.0
1656181690924201154,,34969,,1656181690,916075864,"""mocap""",False,False,False,'',0.0,'',0.3305383324623108,'',0.0
1656181690938841062,,34970,,1656181690,936078029,"""mocap""",False,False,False,'',0.0,'',0.33782464265823364,'',0.0
1656181690960801037,,34971,,1656181690,956163971,"""mocap""",False,False,False,'',0.0,'',0.3445005714893341,'',0.0
1656181690998841572,,34972,,1656181690,996049323,"""mocap""",False,False,False,'',0.0,'',0.34739983081817627,'',0.0
1656181691048951655,,34973,,1656181691,46028429,"""mocap""",False,False,False,'',0.0,'',0.34739983081817627,'',0.0
1656181691099117034,,34974,,1656181691,96021390,"""mocap""",False,False,False,'',0.0,'',0.34739983081817627,'',0.0
1656181691149094955,,34975,,1656181691,146047183,"""mocap""",False,False,False,'',0.0,'',0.34739983081817627,'',0.0
1656181691199420815,,34976,,1656181691,196027152,"""mocap""",False,False,False,'',0.0,'',0.34739983081817627,'',0.0
1656181691215863586,,34977,,1656181691,206083690,"""mocap""",False,False,False,'',0.0,'',0.3541902005672455,'',0.0
1656181691253775319,,34978,,1656181691,206083690,"""mocap""",False,False,False,'',0.0,'',0.3570513129234314,'',0.0
1656181691304302685,,34979,,1656181691,286042649,"""mocap""",False,False,False,'',0.0,'',0.3570513129234314,'',0.0
1656181691354171645,,34980,,1656181691,326181697,"""mocap""",False,False,False,'',0.0,'',0.3570513129234314,'',0.0
1656181691404460992,,34981,,1656181691,326181697,"""mocap""",False,False,False,'',0.0,'',0.3570513129234314,'',0.0
1656181691460151733,,34982,,1656181691,446138167,"""mocap""",False,False,False,'',0.0,'',0.3570513129234314,'',0.0
1656181691462555498,,34983,,1656181691,446138167,"""mocap""",False,False,False,'',0.0,'',0.363650918006897,'',0.0
1656181691490650503,,34984,,1656181691,476101508,"""mocap""",False,False,False,'',0.0,'',0.3668172359466553,'',0.0
1656181691514431292,,34985,,1656181691,496286489,"""mocap""",False,False,False,'',0.0,'',0.3750953674316406,'',0.0
1656181691528545435,,34986,,1656181691,516076747,"""mocap""",False,False,False,'',0.0,'',0.382915735244751,'',0.0
1656181691533954604,,34987,,1656181691,526404328,"""mocap""",False,False,False,'',0.0,'',0.38619646430015564,'',0.0
1656181691538826455,,34988,,1656181691,536132511,"""mocap""",False,False,False,'',0.0,'',0.393559068441391,'',0.0
1656181691547779528,,34989,,1656181691,536132511,"""mocap""",False,False,False,'',0.0,'',0.39661091566085815,'',0.0
1656181691553678557,,34990,,1656181691,546444220,"""mocap""",False,False,False,'',0.0,'',0.40378275513648987,'',0.0
1656181691562839119,,34991,,1656181691,556721240,"""mocap""",False,False,False,'',0.0,'',0.41030609607696533,'',0.0
1656181691568869605,,34992,,1656181691,566135053,"""mocap""",False,False,False,'',0.0,'',0.41328164935112,'',0.0
1656181691577585171,,34993,,1656181691,566135053,"""mocap""",False,False,False,'',0.0,'',0.42117831110954285,'',0.0
1656181691583723243,,34994,,1656181691,576726732,"""mocap""",False,False,False,'',0.0,'',0.4289986789226532,'',0.0
1656181691592226551,,34995,,1656181691,586165825,"""mocap""",False,False,False,'',0.0,'',0.43704795837402344,'',0.0
1656181691602620372,,34996,,1656181691,596371804,"""mocap""",False,False,False,'',0.0,'',0.44544053077697754,'',0.0
1656181691607848163,,34997,,1656181691,596371804,"""mocap""",False,False,False,'',0.0,'',0.45501571893692017,'',0.0
1656181691614286365,,34998,,1656181691,606151540,"""mocap""",False,False,False,'',0.0,'',0.46539202332496643,'',0.0
1656181691623260750,,34999,,1656181691,616140494,"""mocap""",False,False,False,'',0.0,'',0.4766838550567627,'',0.0
1656181691636241506,,35000,,1656181691,626133480,"""mocap""",False,False,False,'',0.0,'',0.5109409093856812,'',0.0
1656181691644684846,,35001,,1656181691,636526597,"""mocap""",False,False,False,'',0.0,'',0.5136494040489197,'',0.0
1656181691650771173,,35002,,1656181691,646132891,"""mocap""",False,False,False,'',0.0,'',0.52238529920578,'',0.0
1656181691660755071,,35003,,1656181691,646132891,"""mocap""",False,False,False,'',0.0,'',0.5311594009399414,'',0.0
1656181691665755403,,35004,,1656181691,646132891,"""mocap""",False,False,False,'',0.0,'',0.539170503616333,'',0.0
1656181691673656594,,35005,,1656181691,666633555,"""mocap""",False,False,False,'',0.0,'',0.5463042259216309,'',0.0
1656181691680743570,,35006,,1656181691,676112361,"""mocap""",False,False,False,'',0.0,'',0.5493941903114319,'',0.0
1656181691688643577,,35007,,1656181691,686121986,"""mocap""",False,False,False,'',0.0,'',0.5562227368354797,'',0.0
1656181691709677046,,35008,,1656181691,706104822,"""mocap""",False,False,False,'',0.0,'',0.5629367828369141,'',0.0
1656181691726115274,,35009,,1656181691,717001496,"""mocap""",False,False,False,'',0.0,'',0.5661031007766724,'',0.0
1656181691775663719,,35010,,1656181691,766132433,"""mocap""",False,False,False,'',0.0,'',0.5661031007766724,'',0.0
1656181691787465905,,35011,,1656181691,776076778,"""mocap""",False,False,False,'',0.0,'',0.5731604695320129,'',0.0
1656181691835929828,,35012,,1656181691,826451663,"""mocap""",False,False,False,'',0.0,'',0.5731604695320129,'',0.0
1656181691886114407,,35013,,1656181691,876090605,"""mocap""",False,False,False,'',0.0,'',0.5731604695320129,'',0.0
1656181691936348874,,35014,,1656181691,926155247,"""mocap""",False,False,False,'',0.0,'',0.5731604695320129,'',0.0
1656181691986384588,,35015,,1656181691,976056559,"""mocap""",False,False,False,'',0.0,'',0.5731604695320129,'',0.0
1656181692036667053,,35016,,1656181692,26096015,"""mocap""",False,False,False,'',0.0,'',0.5731604695320129,'',0.0
1656181692090598831,,35017,,1656181692,86100199,"""mocap""",False,False,False,'',0.0,'',0.5731604695320129,'',0.0
1656181692136995373,,35018,,1656181692,126106636,"""mocap""",False,False,False,'',0.0,'',0.5731604695320129,'',0.0
1656181692139157152,,35019,,1656181692,136057348,"""mocap""",False,False,False,'',0.0,'',0.5711386203765869,'',0.0
1656181692153697346,,35020,,1656181692,146072830,"""mocap""",False,False,False,'',0.0,'',0.5684682726860046,'',0.0
1656181692187609073,,35021,,1656181692,176093610,"""mocap""",False,False,False,'',0.0,'',0.5602282881736755,'',0.0
1656181692198697364,,35022,,1656181692,196049340,"""mocap""",False,False,False,'',0.0,'',0.5572908520698547,'',0.0
1656181692220907066,,35023,,1656181692,216035982,"""mocap""",False,False,False,'',0.0,'',0.55423903465271,'',0.0
1656181692271074778,,35024,,1656181692,266048845,"""mocap""",False,False,False,'',0.0,'',0.55423903465271,'',0.0
1656181692321212441,,35025,,1656181692,316083243,"""mocap""",False,False,False,'',0.0,'',0.55423903465271,'',0.0
1656181692371544826,,35026,,1656181692,366124586,"""mocap""",False,False,False,'',0.0,'',0.55423903465271,'',0.0
1656181692426382180,,35027,,1656181692,416058184,"""mocap""",False,False,False,'',0.0,'',0.55423903465271,'',0.0
1656181692461087737,,35028,,1656181692,456078925,"""mocap""",False,False,False,'',0.0,'',0.5562227368354797,'',0.0
1656181692483981286,,35029,,1656181692,476318273,"""mocap""",False,False,False,'',0.0,'',0.5589693784713745,'',0.0
1656181692513885329,,35030,,1656181692,506095211,"""mocap""",False,False,False,'',0.0,'',0.5621738433837891,'',0.0
1656181692564229394,,35031,,1656181692,556317899,"""mocap""",False,False,False,'',0.0,'',0.5621738433837891,'',0.0
1656181692574164171,,35032,,1656181692,566062562,"""mocap""",False,False,False,'',0.0,'',0.5693838596343994,'',0.0
1656181692619786370,,35033,,1656181692,616152641,"""mocap""",False,False,False,'',0.0,'',0.5725119709968567,'',0.0
1656181692640869854,,35034,,1656181692,636108724,"""mocap""",False,False,False,'',0.0,'',0.5794549584388733,'',0.0
1656181692663991564,,35035,,1656181692,656121958,"""mocap""",False,False,False,'',0.0,'',0.5823160409927368,'',0.0
1656181692694360635,,35036,,1656181692,686354740,"""mocap""",False,False,False,'',0.0,'',0.5855586528778076,'',0.0
1656181692745288610,,35037,,1656181692,736068240,"""mocap""",False,False,False,'',0.0,'',0.5855586528778076,'',0.0
1656181692794422777,,35038,,1656181692,786480498,"""mocap""",False,False,False,'',0.0,'',0.5855586528778076,'',0.0
1656181692849465188,,35039,,1656181692,836075340,"""mocap""",False,False,False,'',0.0,'',0.5855586528778076,'',0.0
1656181692897767731,,35040,,1656181692,886059946,"""mocap""",False,False,False,'',0.0,'',0.5855586528778076,'',0.0
1656181692946224291,,35041,,1656181692,936320587,"""mocap""",False,False,False,'',0.0,'',0.5855586528778076,'',0.0
1656181692995205657,,35042,,1656181692,986303337,"""mocap""",False,False,False,'',0.0,'',0.5855586528778076,'',0.0
1656181693044772561,,35043,,1656181692,996058144,"""mocap""",False,False,False,'',0.0,'',0.5855586528778076,'',0.0
1656181693084014125,,35044,,1656181692,996058144,"""mocap""",False,False,False,'',0.0,'',0.5855586528778076,'',0.0
1656181693090546151,,35045,,1656181692,996058144,"""mocap""",False,False,False,'',0.0,'',0.5855586528778076,'',0.0
1656181693098616270,,35046,,1656181692,996058144,"""mocap""",False,False,False,'',0.0,'',0.5855586528778076,'',0.0
1656181693105519019,,35047,,1656181692,996058144,"""mocap""",False,False,False,'',0.0,'',0.5855586528778076,'',0.0
1656181693113696436,,35048,,1656181692,996058144,"""mocap""",False,False,False,'',0.0,'',0.5855586528778076,'',0.0
1656181693128712761,,35049,,1656181693,126053826,"""mocap""",False,False,False,'',0.0,'',0.5855586528778076,'',0.0
1656181693138502512,,35050,,1656181693,126484293,"""mocap""",False,False,False,'',-0.00021973326511215419,'',0.5855586528778076,'',0.0
1656181693144406660,,35051,,1656181693,137442791,"""mocap""",False,False,False,'',-0.01743217185139656,'',0.5855586528778076,'',0.0
1656181693150728604,,35052,,1656181693,146074195,"""mocap""",False,False,False,'',-0.023337505757808685,'',0.5855586528778076,'',0.0
1656181693161034360,,35053,,1656181693,156466415,"""mocap""",False,False,False,'',-0.04114505648612976,'',0.5855586528778076,'',0.0
1656181693165646049,,35054,,1656181693,156466415,"""mocap""",False,False,False,'',-0.047943051904439926,'',0.5855586528778076,'',0.0
1656181693176470401,,35055,,1656181693,166067620,"""mocap""",False,False,False,'',-0.06870327144861221,'',0.5855586528778076,'',0.0
1656181693181003945,,35056,,1656181693,176491073,"""mocap""",False,False,False,'',-0.07614215463399887,'',0.5855586528778076,'',0.0
1656181693188882671,,35057,,1656181693,186108022,"""mocap""",False,False,False,'',-0.09754326194524765,'',0.5855586528778076,'',0.0
1656181693195815052,,35058,,1656181693,186108022,"""mocap""",False,False,False,'',-0.11422925442457199,'',0.5855586528778076,'',0.0
1656181693205639331,,35059,,1656181693,196131919,"""mocap""",False,False,False,'',-0.1301599144935608,'',0.5855586528778076,'',0.0
1656181693213435689,,35060,,1656181693,206115784,"""mocap""",False,False,False,'',-0.1378505825996399,'',0.5855586528778076,'',0.0
1656181693219600575,,35061,,1656181693,216595237,"""mocap""",False,False,False,'',-0.16295967996120453,'',0.5855586528778076,'',0.0
1656181693225759510,,35062,,1656181693,216595237,"""mocap""",False,False,False,'',-0.18005767464637756,'',0.5837656855583191,'',0.0
1656181693233963071,,35063,,1656181693,226136281,"""mocap""",False,False,False,'',-0.19868922233581543,'',0.5837656855583191,'',0.0
1656181693243811798,,35064,,1656181693,236733111,"""mocap""",False,False,False,'',-0.21993011236190796,'',0.5837656855583191,'',0.0
1656181693248595744,,35065,,1656181693,246089194,"""mocap""",False,False,False,'',-0.23986631631851196,'',0.5837656855583191,'',0.0
1656181693258829019,,35066,,1656181693,246089194,"""mocap""",False,False,False,'',-0.2574678659439087,'',0.5837656855583191,'',0.0
1656181693264035113,,35067,,1656181693,256354949,"""mocap""",False,False,False,'',-0.2649754285812378,'',0.5837656855583191,'',0.0
1656181693275044171,,35068,,1656181693,266164732,"""mocap""",False,False,False,'',-0.2860103249549866,'',0.5816675424575806,'',0.0
1656181693278567210,,35069,,1656181693,276582329,"""mocap""",False,False,False,'',-0.2925107479095459,'',0.5816675424575806,'',0.0
1656181693289312393,,35070,,1656181693,276582329,"""mocap""",False,False,False,'',-0.31105074286460876,'',0.5816675424575806,'',0.0
1656181693295983653,,35071,,1656181693,286380079,"""mocap""",False,False,False,'',-0.31633809208869934,'',0.5816675424575806,'',0.0
1656181693304174189,,35072,,1656181693,296146982,"""mocap""",False,False,False,'',-0.3237769603729248,'',0.5816675424575806,'',0.0
1656181693310919401,,35073,,1656181693,306427713,"""mocap""",False,False,False,'',-0.3315134048461914,'',0.5816675424575806,'',0.0
1656181693315818420,,35074,,1656181693,306427713,"""mocap""",False,False,False,'',-0.33858609199523926,'',0.5816675424575806,'',0.0
1656181693324184031,,35075,,1656181693,316384633,"""mocap""",False,False,False,'',-0.34469741582870483,'',0.5816675424575806,'',0.0
1656181693337522325,,35076,,1656181693,326436307,"""mocap""",False,False,False,'',-0.3497787117958069,'',0.5816675424575806,'',0.0
1656181693340613744,,35077,,1656181693,336081224,"""mocap""",False,False,False,'',-0.3539673984050751,'',0.5816675424575806,'',0.0
1656181693350664105,,35078,,1656181693,336081224,"""mocap""",False,False,False,'',-0.35556960105895996,'',0.5816675424575806,'',0.0
1656181693369163566,,35079,,1656181693,366080082,"""mocap""",False,False,False,'',-0.3514038622379303,'',0.5793023705482483,'',0.0
1656181693380584819,,35080,,1656181693,366080082,"""mocap""",False,False,False,'',-0.32576829195022583,'',0.5793023705482483,'',0.0
1656181693385658976,,35081,,1656181693,376727441,"""mocap""",False,False,False,'',-0.29475387930870056,'',0.5793023705482483,'',0.0
1656181693390878862,,35082,,1656181693,386103780,"""mocap""",False,False,False,'',-0.09223303943872452,'',0.5793023705482483,'',0.0
1656181693402187538,,35083,,1656181693,396144797,"""mocap""",False,False,False,'',-0.0856868177652359,'',0.5793023705482483,'',0.0
1656181693408912398,,35084,,1656181693,396144797,"""mocap""",False,False,False,'',-0.05297860875725746,'',0.5793023705482483,'',0.0
1656181693413756025,,35085,,1656181693,407656771,"""mocap""",False,False,False,'',-0.020934171974658966,'',0.5766701102256775,'',0.0
1656181693420740663,,35086,,1656181693,416200751,"""mocap""",False,False,False,'',0.0,'',0.5766701102256775,'',0.0
1656181693431127059,,35087,,1656181693,416200751,"""mocap""",False,False,False,'',0.0,'',0.5739234685897827,'',0.0
1656181693435700380,,35088,,1656181693,427578996,"""mocap""",False,False,False,'',0.0,'',0.5739234685897827,'',0.0
1656181693446347386,,35089,,1656181693,436151296,"""mocap""",False,False,False,'',0.0,'',0.5709097385406494,'',0.0
1656181693458731656,,35090,,1656181693,456271538,"""mocap""",False,False,False,'',0.0,'',0.5677816271781921,'',0.0
1656181693476408709,,35091,,1656181693,466105481,"""mocap""",False,False,False,'',0.0,'',0.5645771622657776,'',0.0
1656181693488969428,,35092,,1656181693,486072698,"""mocap""",False,False,False,'',0.0,'',0.561372697353363,'',0.0
1656181693514189076,,35093,,1656181693,506086028,"""mocap""",False,False,False,'',0.0,'',0.5546586513519287,'',0.0
1656181693525999644,,35094,,1656181693,516390759,"""mocap""",False,False,False,'',0.0,'',0.5521027445793152,'',0.0
1656181693543761626,,35095,,1656181693,536288504,"""mocap""",False,False,False,'',0.0,'',0.5488982796669006,'',0.0
1656181693560902930,,35096,,1656181693,546055118,"""mocap""",False,False,False,'',0.0,'',0.5405438542366028,'',0.0
1656181693565979999,,35097,,1656181693,556493675,"""mocap""",False,False,False,'',0.0,'',0.5375682711601257,'',0.0
1656181693581268551,,35098,,1656181693,576084505,"""mocap""",False,False,False,'',0.0,'',0.5284890532493591,'',0.0
1656181693586480085,,35099,,1656181693,576084505,"""mocap""",False,False,False,'',0.0,'',0.52146977186203,'',0.0
1656181693593802198,,35100,,1656181693,586088465,"""mocap""",False,False,False,'',0.0,'',0.5183797478675842,'',0.0
1656181693604671670,,35101,,1656181693,596434349,"""mocap""",False,False,False,'',0.0,'',0.5108646154403687,'',0.0
1656181693608840667,,35102,,1656181693,606160771,"""mocap""",False,False,False,'',0.0,'',0.5076601505279541,'',0.0
1656181693615979610,,35103,,1656181693,606160771,"""mocap""",False,False,False,'',0.0,'',0.5004119873046875,'',0.0
1656181693624385797,,35104,,1656181693,616226749,"""mocap""",False,False,False,'',0.0,'',0.49751272797584534,'',0.0
1656181693631073408,,35105,,1656181693,626125492,"""mocap""",False,False,False,'',0.0031266214791685343,'',0.4908749759197235,'',0.0
1656181693638782789,,35106,,1656181693,626125492,"""mocap""",False,False,False,'',0.026473280042409897,'',0.48797571659088135,'',0.0
1656181693645954916,,35107,,1656181693,626125492,"""mocap""",False,False,False,'',0.04862971976399422,'',0.48141422867774963,'',0.0
1656181693653984043,,35108,,1656181693,626125492,"""mocap""",False,False,False,'',0.07245704531669617,'',0.47866755723953247,'',0.0
1656181693676023727,,35109,,1656181693,626125492,"""mocap""",False,False,False,'',0.15412457287311554,'',0.4684438705444336,'',0.0
1656181693690663313,,35110,,1656181693,626125492,"""mocap""",False,False,False,'',0.21173588931560516,'',0.4597460925579071,'',0.0
1656181693698517814,,35111,,1656181693,626125492,"""mocap""",False,False,False,'',0.23803521692752838,'',0.4597460925579071,'',0.0
1656181693705847479,,35112,,1656181693,626125492,"""mocap""",False,False,False,'',0.2641056478023529,'',0.4528794288635254,'',0.0
1656181693713721725,,35113,,1656181693,626125492,"""mocap""",False,False,False,'',0.29289987683296204,'',0.4528794288635254,'',0.0
1656181693720930941,,35114,,1656181693,626125492,"""mocap""",False,False,False,'',0.3205496668815613,'',0.4498275816440582,'',0.0
1656181693728631137,,35115,,1656181693,626125492,"""mocap""",False,False,False,'',0.3448576331138611,'',0.4498275816440582,'',0.0
1656181693735651648,,35116,,1656181693,626125492,"""mocap""",False,False,False,'',0.36767786741256714,'',0.44299906492233276,'',0.0
1656181693743875017,,35117,,1656181693,626125492,"""mocap""",False,False,False,'',0.3908643126487732,'',0.44299906492233276,'',0.0
1656181693750657477,,35118,,1656181693,626125492,"""mocap""",False,False,False,'',0.4142338037490845,'',0.4404049813747406,'',0.0
1656181693760356571,,35119,,1656181693,626125492,"""mocap""",False,False,False,'',0.44051027297973633,'',0.4404049813747406,'',0.0
1656181693765631498,,35120,,1656181693,626125492,"""mocap""",False,False,False,'',0.4659627079963684,'',0.4404049813747406,'',0.0
1656181693773534032,,35121,,1656181693,626125492,"""mocap""",False,False,False,'',0.4882107079029083,'',0.4374675750732422,'',0.0
1656181693780531566,,35122,,1656181693,626125492,"""mocap""",False,False,False,'',0.511122465133667,'',0.4374675750732422,'',0.0
1656181693788645718,,35123,,1656181693,626125492,"""mocap""",False,False,False,'',0.5320886969566345,'',0.4374675750732422,'',0.0
1656181693795804757,,35124,,1656181693,626125492,"""mocap""",False,False,False,'',0.5529404878616333,'',0.4374675750732422,'',0.0
1656181693803730779,,35125,,1656181693,626125492,"""mocap""",False,False,False,'',0.5719839930534363,'',0.434415727853775,'',0.0
1656181693816609262,,35126,,1656181693,626125492,"""mocap""",False,False,False,'',0.590569794178009,'',0.434415727853775,'',0.0
1656181693824499028,,35127,,1656181693,626125492,"""mocap""",False,False,False,'',0.6000000238418579,'',0.434415727853775,'',0.0
1656181693834020136,,35128,,1656181693,626125492,"""mocap""",False,False,False,'',0.6000000238418579,'',0.4277779459953308,'',0.0
1656181693850419353,,35129,,1656181693,836071418,"""mocap""",False,False,False,'',0.6000000238418579,'',0.42541277408599854,'',0.0
1656181693864045490,,35130,,1656181693,856179373,"""mocap""",False,False,False,'',0.6000000238418579,'',0.42258980870246887,'',0.0
1656181693878842358,,35131,,1656181693,866275558,"""mocap""",False,False,False,'',0.6000000238418579,'',0.4195379614830017,'',0.0
1656181693895896109,,35132,,1656181693,886067350,"""mocap""",False,False,False,'',0.6000000238418579,'',0.41648608446121216,'',0.0
1656181693933848189,,35133,,1656181693,926252282,"""mocap""",False,False,False,'',0.6000000238418579,'',0.4133579432964325,'',0.0
1656181693965037682,,35134,,1656181693,956074114,"""mocap""",False,False,False,'',0.6000000238418579,'',0.4066438674926758,'',0.0
1656181694005833756,,35135,,1656181693,996269415,"""mocap""",False,False,False,'',0.6000000238418579,'',0.404202401638031,'',0.0
1656181694055854868,,35136,,1656181694,26254864,"""mocap""",False,False,False,'',0.6000000238418579,'',0.404202401638031,'',0.0
1656181694106011951,,35137,,1656181694,66304113,"""mocap""",False,False,False,'',0.6000000238418579,'',0.404202401638031,'',0.0
1656181694156048711,,35138,,1656181694,66304113,"""mocap""",False,False,False,'',0.6000000238418579,'',0.404202401638031,'',0.0
1656181694206164353,,35139,,1656181694,66304113,"""mocap""",False,False,False,'',0.6000000238418579,'',0.404202401638031,'',0.0
1656181694256231866,,35140,,1656181694,66304113,"""mocap""",False,False,False,'',0.6000000238418579,'',0.404202401638031,'',0.0
1656181694309279438,,35141,,1656181694,296088729,"""mocap""",False,False,False,'',0.6000000238418579,'',0.404202401638031,'',0.0
1656181694357230548,,35142,,1656181694,346203315,"""mocap""",False,False,False,'',0.6000000238418579,'',0.404202401638031,'',0.0
1656181694411881302,,35143,,1656181694,396239948,"""mocap""",False,False,False,'',0.6000000238418579,'',0.404202401638031,'',0.0
1656181694462496404,,35144,,1656181694,446621224,"""mocap""",False,False,False,'',0.6000000238418579,'',0.404202401638031,'',0.0
1656181694511567812,,35145,,1656181694,496274237,"""mocap""",False,False,False,'',0.6000000238418579,'',0.404202401638031,'',0.0
1656181694562444517,,35146,,1656181694,556726706,"""mocap""",False,False,False,'',0.6000000238418579,'',0.404202401638031,'',0.0
1656181694608501722,,35147,,1656181694,596280175,"""mocap""",False,False,False,'',0.6000000238418579,'',0.404202401638031,'',0.0
1656181694659119352,,35148,,1656181694,656166718,"""mocap""",False,False,False,'',0.6000000238418579,'',0.40591907501220703,'',0.0
1656181694675131910,,35149,,1656181694,666134102,"""mocap""",False,False,False,'',0.6000000238418579,'',0.4085131287574768,'',0.0
1656181694688891935,,35150,,1656181694,686055782,"""mocap""",False,False,False,'',0.6000000238418579,'',0.4161427617073059,'',0.0
1656181694706316248,,35151,,1656181694,696365185,"""mocap""",False,False,False,'',0.6000000238418579,'',0.42423015832901,'',0.0
1656181694710771264,,35152,,1656181694,706106486,"""mocap""",False,False,False,'',0.6000000238418579,'',0.4274727702140808,'',0.0
1656181694722635304,,35153,,1656181694,716080014,"""mocap""",False,False,False,'',0.6000000238418579,'',0.4351024031639099,'',0.0
1656181694727927383,,35154,,1656181694,716080014,"""mocap""",False,False,False,'',0.6000000238418579,'',0.44189274311065674,'',0.0
1656181694733742602,,35155,,1656181694,726330729,"""mocap""",False,False,False,'',0.6000000238418579,'',0.4449446201324463,'',0.0
1656181694742916347,,35156,,1656181694,736987431,"""mocap""",False,False,False,'',0.6000000238418579,'',0.45215460658073425,'',0.0
1656181694748560493,,35157,,1656181694,746086711,"""mocap""",False,False,False,'',0.6000000238418579,'',0.45524460077285767,'',0.0
1656181694757415131,,35158,,1656181694,746086711,"""mocap""",False,False,False,'',0.6000000238418579,'',0.4623401463031769,'',0.0
1656181694763936628,,35159,,1656181694,756465362,"""mocap""",False,False,False,'',0.6000000238418579,'',0.46516311168670654,'',0.0
1656181694773694858,,35160,,1656181694,766955663,"""mocap""",False,False,False,'',0.6000000238418579,'',0.471686452627182,'',0.0
1656181694791172548,,35161,,1656181694,776359778,"""mocap""",False,False,False,'',0.6000000238418579,'',0.47882014513015747,'',0.0
1656181694800601591,,35162,,1656181694,796078863,"""mocap""",False,False,False,'',0.6000000238418579,'',0.48557236790657043,'',0.0
1656181694815905054,,35163,,1656181694,806156968,"""mocap""",False,False,False,'',0.6000000238418579,'',0.4884716272354126,'',0.0
1656181694846196457,,35164,,1656181694,836067024,"""mocap""",False,False,False,'',0.6000000238418579,'',0.4917142391204834,'',0.0
1656181694895864255,,35165,,1656181694,886602541,"""mocap""",False,False,False,'',0.6000000238418579,'',0.4917142391204834,'',0.0
1656181694946022713,,35166,,1656181694,937367404,"""mocap""",False,False,False,'',0.6000000238418579,'',0.4917142391204834,'',0.0
1656181695000487353,,35167,,1656181694,986061273,"""mocap""",False,False,False,'',0.6000000238418579,'',0.4917142391204834,'',0.0
1656181695048478269,,35168,,1656181695,36244178,"""mocap""",False,False,False,'',0.6000000238418579,'',0.4917142391204834,'',0.0
1656181695096624131,,35169,,1656181695,86054662,"""mocap""",False,False,False,'',0.6000000238418579,'',0.4917142391204834,'',0.0
1656181695147083612,,35170,,1656181695,136057468,"""mocap""",False,False,False,'',0.6000000238418579,'',0.4917142391204834,'',0.0
1656181695201017941,,35171,,1656181695,186206963,"""mocap""",False,False,False,'',0.6000000238418579,'',0.4917142391204834,'',0.0
1656181695250968714,,35172,,1656181695,236219593,"""mocap""",False,False,False,'',0.6000000238418579,'',0.4917142391204834,'',0.0
1656181695300018520,,35173,,1656181695,286346688,"""mocap""",False,False,False,'',0.6000000238418579,'',0.4917142391204834,'',0.0
1656181695351597563,,35174,,1656181695,336409334,"""mocap""",False,False,False,'',0.6000000238418579,'',0.4917142391204834,'',0.0
1656181695402003797,,35175,,1656181695,386213258,"""mocap""",False,False,False,'',0.6000000238418579,'',0.4917142391204834,'',0.0
1656181695448324906,,35176,,1656181695,446072310,"""mocap""",False,False,False,'',0.6000000238418579,'',0.4917142391204834,'',0.0
1656181695498500129,,35177,,1656181695,496065036,"""mocap""",False,False,False,'',0.6000000238418579,'',0.4917142391204834,'',0.0
1656181695549469408,,35178,,1656181695,546101986,"""mocap""",False,False,False,'',0.6000000238418579,'',0.4917142391204834,'',0.0
1656181695606135760,,35179,,1656181695,596074360,"""mocap""",False,False,False,'',0.6000000238418579,'',0.4917142391204834,'',0.0
1656181695648746181,,35180,,1656181695,646168814,"""mocap""",False,False,False,'',0.6000000238418579,'',0.4917142391204834,'',0.0
1656181695668132143,,35181,,1656181695,656087269,"""mocap""",False,False,False,'',0.3924207389354706,'',0.4917142391204834,'',0.0
1656181695672118034,,35182,,1656181695,667788172,"""mocap""",False,False,False,'',0.37227851152420044,'',0.4917142391204834,'',0.0
1656181695678842444,,35183,,1656181695,676137525,"""mocap""",False,False,False,'',0.3337794244289398,'',0.4917142391204834,'',0.0
1656181695696650120,,35184,,1656181695,686119916,"""mocap""",False,False,False,'',0.044875942170619965,'',0.4917142391204834,'',0.0
1656181695701566387,,35185,,1656181695,696334758,"""mocap""",False,False,False,'',0.007246620021760464,'',0.4917142391204834,'',0.0
1656181695718357222,,35186,,1656181695,706091451,"""mocap""",False,False,False,'',0.0,'',0.4917142391204834,'',0.0
1656181695771288662,,35187,,1656181695,756256626,"""mocap""",False,False,False,'',0.0,'',0.4917142391204834,'',0.0
1656181695801924098,,35188,,1656181695,786412890,"""mocap""",False,False,False,'',0.0,'',0.4917142391204834,'',0.0
1656181695808282138,,35189,,1656181695,786412890,"""mocap""",False,False,False,'',0.0,'',0.4917142391204834,'',0.0
1656181695813831690,,35190,,1656181695,786412890,"""mocap""",False,False,False,'',-0.11441236734390259,'',0.4917142391204834,'',0.0
1656181695828718765,,35191,,1656181695,786412890,"""mocap""",False,False,False,'',-0.13395947217941284,'',0.4917142391204834,'',0.0
1656181695836582738,,35192,,1656181695,786412890,"""mocap""",False,False,False,'',-0.141169473528862,'',0.4917142391204834,'',0.0
1656181695843790161,,35193,,1656181695,786412890,"""mocap""",False,False,False,'',-0.16799524426460266,'',0.4917142391204834,'',0.0
1656181695851527829,,35194,,1656181695,786412890,"""mocap""",False,False,False,'',-0.1899685561656952,'',0.4917142391204834,'',0.0
1656181695858530994,,35195,,1656181695,786412890,"""mocap""",False,False,False,'',-0.21498611569404602,'',0.4917142391204834,'',0.0
1656181695884816568,,35196,,1656181695,876058187,"""mocap""",False,False,False,'',-0.2720251977443695,'',0.4917142391204834,'',0.0
1656181695888696858,,35197,,1656181695,886077411,"""mocap""",False,False,False,'',-0.28761252760887146,'',0.4917142391204834,'',0.0
1656181695896630303,,35198,,1656181695,886077411,"""mocap""",False,False,False,'',-0.29479965567588806,'',0.4917142391204834,'',0.0
1656181695911797284,,35199,,1656181695,896090491,"""mocap""",False,False,False,'',-0.3251960873603821,'',0.4917142391204834,'',0.0
1656181695921588154,,35200,,1656181695,916370540,"""mocap""",False,False,False,'',-0.3296136260032654,'',0.4917142391204834,'',0.0
1656181695926367332,,35201,,1656181695,920138605,"""mocap""",False,False,False,'',-0.3354731798171997,'',0.4917142391204834,'',0.0
1656181695933840197,,35202,,1656181695,920138605,"""mocap""",False,False,False,'',-0.3412182927131653,'',0.488776832818985,'',0.0
1656181695942002637,,35203,,1656181695,920138605,"""mocap""",False,False,False,'',-0.3462538421154022,'',0.4817575514316559,'',0.0
1656181695948873769,,35204,,1656181695,920138605,"""mocap""",False,False,False,'',-0.3462538421154022,'',0.4750816226005554,'',0.0
1656181695956788718,,35205,,1656181695,920138605,"""mocap""",False,False,False,'',-0.3462538421154022,'',0.46848201751708984,'',0.0
1656181695979281395,,35206,,1656181695,958377308,"""mocap""",False,False,False,'',-0.2722998857498169,'',0.4383831322193146,'',0.0
1656181695987782622,,35207,,1656181695,958377308,"""mocap""",False,False,False,'',-0.03311105817556381,'',0.43536943197250366,'',0.0
1656181695993991860,,35208,,1656181695,958377308,"""mocap""",False,False,False,'',-0.02631305903196335,'',0.423467218875885,'',0.0
1656181696002640608,,35209,,1656181695,958377308,"""mocap""",False,False,False,'',-0.0007919553318060935,'',0.3964201807975769,'',0.0
1656181696008620180,,35210,,1656181695,958377308,"""mocap""",False,False,False,'',0.0,'',0.3890194296836853,'',0.0
1656181696031900318,,35211,,1656181695,958377308,"""mocap""",False,False,False,'',0.0,'',0.33568835258483887,'',0.0
1656181696038680377,,35212,,1656181695,958377308,"""mocap""",False,False,False,'',0.0,'',0.32866910099983215,'',0.0
1656181696046640383,,35213,,1656181695,958377308,"""mocap""",False,False,False,'',0.0,'',0.31794947385787964,'',0.0
1656181696053718332,,35214,,1656181695,958377308,"""mocap""",False,False,False,'',0.0,'',0.30562761425971985,'',0.0
1656181696062542121,,35215,,1656181696,60173364,"""mocap""",False,False,False,'',0.0,'',0.29284799098968506,'',0.0
1656181696077298313,,35216,,1656181696,60647608,"""mocap""",False,False,False,'',0.0,'',0.28106021881103516,'',0.0
1656181696081510574,,35217,,1656181696,76806501,"""mocap""",False,False,False,'',0.0,'',0.2705313265323639,'',0.0
1656181696093639128,,35218,,1656181696,86084566,"""mocap""",False,False,False,'',0.0,'',0.25847652554512024,'',0.0
1656181696098660131,,35219,,1656181696,96057037,"""mocap""",False,False,False,'',0.0,'',0.24981689453125,'',0.0
1656181696123976351,,35220,,1656181696,116072187,"""mocap""",False,False,False,'',0.0,'',0.2419583797454834,'',0.0
1656181696131666114,,35221,,1656181696,126731383,"""mocap""",False,False,False,'',0.0,'',0.23883022367954254,'',0.0
1656181696154505385,,35222,,1656181696,146181729,"""mocap""",False,False,False,'',0.0,'',0.23223060369491577,'',0.0
1656181696159145489,,35223,,1656181696,146181729,"""mocap""",False,False,False,'',0.0,'',0.23223060369491577,'',0.0
1656181696176013892,,35224,,1656181696,166104142,"""mocap""",False,False,False,'',0.0,'',0.23223060369491577,'',0.0
1656181696183544422,,35225,,1656181696,176515401,"""mocap""",False,False,False,'',0.0,'',0.23223060369491577,'',0.0
1656181696188515281,,35226,,1656181696,186148572,"""mocap""",False,False,False,'',0.0,'',0.23223060369491577,'',0.0
1656181696200759548,,35227,,1656181696,196424118,"""mocap""",False,False,False,'',0.024871060624718666,'',0.23223060369491577,'',0.0
1656181696205332035,,35228,,1656181696,196424118,"""mocap""",False,False,False,'',0.05625171586871147,'',0.23223060369491577,'',0.0
1656181696211666746,,35229,,1656181696,206123626,"""mocap""",False,False,False,'',0.09003570675849915,'',0.23223060369491577,'',0.0
1656181696221659889,,35230,,1656181696,216404580,"""mocap""",False,False,False,'',0.12459791451692581,'',0.23223060369491577,'',0.0
1656181696228787983,,35231,,1656181696,216404580,"""mocap""",False,False,False,'',0.15524613857269287,'',0.23223060369491577,'',0.0
1656181696233579641,,35232,,1656181696,226333338,"""mocap""",False,False,False,'',0.18829767405986786,'',0.23223060369491577,'',0.0
1656181696244855739,,35233,,1656181696,236347537,"""mocap""",False,False,False,'',0.21576432883739471,'',0.23223060369491577,'',0.0
1656181696249282242,,35234,,1656181696,236347537,"""mocap""",False,False,False,'',0.241125226020813,'',0.23223060369491577,'',0.0
1656181696256645634,,35235,,1656181696,248438298,"""mocap""",False,False,False,'',0.2650669813156128,'',0.23223060369491577,'',0.0
1656181696266684729,,35236,,1656181696,256108701,"""mocap""",False,False,False,'',0.2897641062736511,'',0.23223060369491577,'',0.0
1656181696278860707,,35237,,1656181696,276274733,"""mocap""",False,False,False,'',0.337533175945282,'',0.23223060369491577,'',0.0
1656181696296940096,,35238,,1656181696,286375172,"""mocap""",False,False,False,'',0.37440717220306396,'',0.2349391132593155,'',0.0
1656181696301855115,,35239,,1656181696,296422588,"""mocap""",False,False,False,'',0.39015471935272217,'',0.2349391132593155,'',0.0
1656181696308708519,,35240,,1656181696,306210673,"""mocap""",False,False,False,'',0.39674675464630127,'',0.2419583797454834,'',0.0
1656181696316694540,,35241,,1656181696,306210673,"""mocap""",False,False,False,'',0.4142338037490845,'',0.2419583797454834,'',0.0
1656181696326364672,,35242,,1656181696,316119271,"""mocap""",False,False,False,'',0.41888025403022766,'',0.24485762417316437,'',0.0
1656181696355959234,,35243,,1656181696,346154797,"""mocap""",False,False,False,'',0.44691914319992065,'',0.2521820664405823,'',0.0
1656181696372417361,,35244,,1656181696,366123034,"""mocap""",False,False,False,'',0.44856715202331543,'',0.2521820664405823,'',0.0
1656181696381529280,,35245,,1656181696,366123034,"""mocap""",False,False,False,'',0.44856715202331543,'',0.2553865313529968,'',0.0
1656181696383888725,,35246,,1656181696,376331475,"""mocap""",False,False,False,'',0.45328226685523987,'',0.2553865313529968,'',0.0
1656181696403057276,,35247,,1656181696,396088831,"""mocap""",False,False,False,'',0.4572649300098419,'',0.2553865313529968,'',0.0
1656181696408072199,,35248,,1656181696,396088831,"""mocap""",False,False,False,'',0.4572649300098419,'',0.2633213400840759,'',0.0
1656181696426447911,,35249,,1656181696,416386064,"""mocap""",False,False,False,'',0.4612705111503601,'',0.2633213400840759,'',0.0
1656181696428828124,,35250,,1656181696,427039820,"""mocap""",False,False,False,'',0.4612705111503601,'',0.27011170983314514,'',0.0
1656181696440670531,,35251,,1656181696,427039820,"""mocap""",False,False,False,'',0.4656422436237335,'',0.27011170983314514,'',0.0
1656181696449856403,,35252,,1656181696,446221843,"""mocap""",False,False,False,'',0.46740472316741943,'',0.27011170983314514,'',0.0
1656181696455118081,,35253,,1656181696,446221843,"""mocap""",False,False,False,'',0.47154757380485535,'',0.27011170983314514,'',0.0
1656181696460522000,,35254,,1656181696,446221843,"""mocap""",False,False,False,'',0.47564470767974854,'',0.27011170983314514,'',0.0
1656181696477402370,,35255,,1656181696,466113696,"""mocap""",False,False,False,'',0.49125492572784424,'',0.27312541007995605,'',0.0
1656181696485157126,,35256,,1656181696,466113696,"""mocap""",False,False,False,'',0.4956953525543213,'',0.27312541007995605,'',0.0
1656181696488796966,,35257,,1656181696,484475424,"""mocap""",False,False,False,'',0.511832058429718,'',0.2808694839477539,'',0.0
1656181696496581609,,35258,,1656181696,484475424,"""mocap""",False,False,False,'',0.5176000595092773,'',0.2808694839477539,'',0.0
1656181696503777832,,35259,,1656181696,496087013,"""mocap""",False,False,False,'',0.5250160098075867,'',0.28743094205856323,'',0.0
1656181696511685197,,35260,,1656181696,506125372,"""mocap""",False,False,False,'',0.5327295660972595,'',0.28743094205856323,'',0.0
1656181696518671465,,35261,,1656181696,516083955,"""mocap""",False,False,False,'',0.5400540232658386,'',0.2949461340904236,'',0.0
1656181696533584715,,35262,,1656181696,526101642,"""mocap""",False,False,False,'',0.5611804723739624,'',0.3051316738128662,'',0.0
1656181696541445488,,35263,,1656181696,536085249,"""mocap""",False,False,False,'',0.5630801916122437,'',0.3131428062915802,'',0.0
1656181696557204761,,35264,,1656181696,546107992,"""mocap""",False,False,False,'',0.5812997817993164,'',0.32210761308670044,'',0.0
1656181696563903443,,35265,,1656181696,556100367,"""mocap""",False,False,False,'',0.5824442505836487,'',0.32210761308670044,'',0.0
1656181696571562870,,35266,,1656181696,556100367,"""mocap""",False,False,False,'',0.5842524766921997,'',0.3302331566810608,'',0.0
1656181696578494866,,35267,,1656181696,576197886,"""mocap""",False,False,False,'',0.5884640216827393,'',0.3333994448184967,'',0.0
1656181696589832821,,35268,,1656181696,586957756,"""mocap""",False,False,False,'',0.5884640216827393,'',0.34038057923316956,'',0.0
1656181696593495284,,35269,,1656181696,586957756,"""mocap""",False,False,False,'',0.5927442312240601,'',0.3432798385620117,'',0.0
1656181696608986907,,35270,,1656181696,606190723,"""mocap""",False,False,False,'',0.5946211218833923,'',0.3515961170196533,'',0.0
1656181696624667140,,35271,,1656181696,616274203,"""mocap""",False,False,False,'',0.5946211218833923,'',0.3595309257507324,'',0.0
1656181696632602569,,35272,,1656181696,626119536,"""mocap""",False,False,False,'',0.5989242196083069,'',0.3595309257507324,'',0.0
1656181696655910164,,35273,,1656181696,646101310,"""mocap""",False,False,False,'',0.5989242196083069,'',0.36971649527549744,'',0.0
1656181696669229959,,35274,,1656181696,666111116,"""mocap""",False,False,False,'',0.5989242196083069,'',0.3772316575050354,'',0.0
1656181696676898762,,35275,,1656181696,666111116,"""mocap""",False,False,False,'',0.6000000238418579,'',0.3772316575050354,'',0.0
1656181696691702315,,35276,,1656181696,686464797,"""mocap""",False,False,False,'',0.6000000238418579,'',0.3803216516971588,'',0.0
1656181696706606701,,35277,,1656181696,696085873,"""mocap""",False,False,False,'',0.6000000238418579,'',0.38821834325790405,'',0.0
1656181696728700941,,35278,,1656181696,726045942,"""mocap""",False,False,False,'',0.6000000238418579,'',0.39497053623199463,'',0.0
1656181696758913396,,35279,,1656181696,756053659,"""mocap""",False,False,False,'',0.6000000238418579,'',0.39813685417175293,'',0.0
1656181696788849400,,35280,,1656181696,786062976,"""mocap""",False,False,False,'',0.6000000238418579,'',0.4055757224559784,'',0.0
1656181696818807165,,35281,,1656181696,816037573,"""mocap""",False,False,False,'',0.6000000238418579,'',0.40855127573013306,'',0.0
1656181696870649728,,35282,,1656181696,866426875,"""mocap""",False,False,False,'',0.6000000238418579,'',0.40855127573013306,'',0.0
1656181696919785771,,35283,,1656181696,916050795,"""mocap""",False,False,False,'',0.6000000238418579,'',0.40855127573013306,'',0.0
1656181696946822391,,35284,,1656181696,936059513,"""mocap""",False,False,False,'',0.6000000238418579,'',0.41526535153388977,'',0.0
1656181696996902986,,35285,,1656181696,986043532,"""mocap""",False,False,False,'',0.6000000238418579,'',0.41526535153388977,'',0.0
1656181697051161440,,35286,,1656181697,36102270,"""mocap""",False,False,False,'',0.6000000238418579,'',0.41526535153388977,'',0.0
1656181697097379215,,35287,,1656181697,86036589,"""mocap""",False,False,False,'',0.6000000238418579,'',0.41526535153388977,'',0.0
1656181697141627406,,35288,,1656181697,136045406,"""mocap""",False,False,False,'',0.5933393239974976,'',0.41526535153388977,'',0.0
1656181697148849740,,35289,,1656181697,146038644,"""mocap""",False,False,False,'',0.5679555535316467,'',0.41526535153388977,'',0.0
1656181697156716240,,35290,,1656181697,146038644,"""mocap""",False,False,False,'',0.549072265625,'',0.41526535153388977,'',0.0
1656181697171763027,,35291,,1656181697,166061345,"""mocap""",False,False,False,'',0.5092684626579285,'',0.41526535153388977,'',0.0
1656181697178674606,,35292,,1656181697,176048184,"""mocap""",False,False,False,'',0.48775291442871094,'',0.41526535153388977,'',0.0
1656181697188674981,,35293,,1656181697,176048184,"""mocap""",False,False,False,'',0.4621860384941101,'',0.41526535153388977,'',0.0
1656181697193862866,,35294,,1656181697,186439697,"""mocap""",False,False,False,'',0.437466025352478,'',0.41526535153388977,'',0.0
1656181697201705461,,35295,,1656181697,196067045,"""mocap""",False,False,False,'',0.4147602915763855,'',0.41526535153388977,'',0.0
1656181697208678482,,35296,,1656181697,206052187,"""mocap""",False,False,False,'',0.3934507369995117,'',0.41526535153388977,'',0.0
1656181697216533270,,35297,,1656181697,206052187,"""mocap""",False,False,False,'',0.3719809353351593,'',0.41526535153388977,'',0.0
1656181697223950262,,35298,,1656181697,206052187,"""mocap""",False,False,False,'',0.35202184319496155,'',0.41526535153388977,'',0.0
1656181697231677016,,35299,,1656181697,206052187,"""mocap""",False,False,False,'',0.3347407579421997,'',0.41526535153388977,'',0.0
1656181697238605300,,35300,,1656181697,206052187,"""mocap""",False,False,False,'',0.32739341259002686,'',0.41526535153388977,'',0.0
1656181697246615514,,35301,,1656181697,206052187,"""mocap""",False,False,False,'',0.30768609046936035,'',0.41526535153388977,'',0.0
1656181697253577494,,35302,,1656181697,246341463,"""mocap""",False,False,False,'',0.30049896240234375,'',0.41526535153388977,'',0.0
1656181697261603707,,35303,,1656181697,246341463,"""mocap""",False,False,False,'',0.27564164996147156,'',0.41526535153388977,'',0.0
1656181697268807417,,35304,,1656181697,246341463,"""mocap""",False,False,False,'',0.2596423327922821,'',0.41526535153388977,'',0.0
1656181697276643581,,35305,,1656181697,246341463,"""mocap""",False,False,False,'',0.252226322889328,'',0.41526535153388977,'',0.0
1656181697283745723,,35306,,1656181697,246341463,"""mocap""",False,False,False,'',0.23089388012886047,'',0.41526535153388977,'',0.0
1656181697298463482,,35307,,1656181697,246341463,"""mocap""",False,False,False,'',0.2013901174068451,'',0.41526535153388977,'',0.0
1656181697311553003,,35308,,1656181697,246341463,"""mocap""",False,False,False,'',0.19404278695583344,'',0.41526535153388977,'',0.0
1656181697313918687,,35309,,1656181697,246341463,"""mocap""",False,False,False,'',0.17374035716056824,'',0.41526535153388977,'',0.0
1656181697321567394,,35310,,1656181697,246341463,"""mocap""",False,False,False,'',0.1682470142841339,'',0.41526535153388977,'',0.0
1656181697328575998,,35311,,1656181697,246341463,"""mocap""",False,False,False,'',0.1610141396522522,'',0.41526535153388977,'',0.0
1656181697336500451,,35312,,1656181697,246341463,"""mocap""",False,False,False,'',0.1446256935596466,'',0.41526535153388977,'',0.0
1656181697343727201,,35313,,1656181697,246341463,"""mocap""",False,False,False,'',0.13947568833827972,'',0.41526535153388977,'',0.0
1656181697354643264,,35314,,1656181697,348396426,"""mocap""",False,False,False,'',0.12311013787984848,'',0.41526535153388977,'',0.0
1656181697361398010,,35315,,1656181697,356287950,"""mocap""",False,False,False,'',0.117502361536026,'',0.41526535153388977,'',0.0
1656181697366473030,,35316,,1656181697,360733780,"""mocap""",False,False,False,'',0.1012512594461441,'',0.41526535153388977,'',0.0
1656181697375203793,,35317,,1656181697,366067554,"""mocap""",False,False,False,'',0.09546037018299103,'',0.41526535153388977,'',0.0
1656181697381460295,,35318,,1656181697,376388220,"""mocap""",False,False,False,'',0.0772179365158081,'',0.41526535153388977,'',0.0
1656181697392393510,,35319,,1656181697,386356338,"""mocap""",False,False,False,'',0.07092349231243134,'',0.41526535153388977,'',0.0
1656181697396644459,,35320,,1656181697,386356338,"""mocap""",False,False,False,'',0.0538712739944458,'',0.41526535153388977,'',0.0
1656181697404038187,,35321,,1656181697,396092934,"""mocap""",False,False,False,'',0.047347940504550934,'',0.41526535153388977,'',0.0
1656181697412700309,,35322,,1656181697,406849603,"""mocap""",False,False,False,'',0.024321725592017174,'',0.41526535153388977,'',0.0
1656181697418762698,,35323,,1656181697,416066643,"""mocap""",False,False,False,'',0.006285286974161863,'',0.41526535153388977,'',0.0
1656181697437384619,,35324,,1656181697,426459116,"""mocap""",False,False,False,'',0.0,'',0.41526535153388977,'',0.0
1656181697441628208,,35325,,1656181697,437644717,"""mocap""",False,False,False,'',0.0,'',0.41526535153388977,'',0.0
1656181697448571404,,35326,,1656181697,446127094,"""mocap""",False,False,False,'',0.0,'',0.41526535153388977,'',0.0
1656181697458212287,,35327,,1656181697,446127094,"""mocap""",False,False,False,'',0.0,'',0.41526535153388977,'',0.0
1656181697467699633,,35328,,1656181697,456118701,"""mocap""",False,False,False,'',0.0,'',0.41526535153388977,'',0.0
1656181697479796794,,35329,,1656181697,476136346,"""mocap""",False,False,False,'',0.0,'',0.41526535153388977,'',0.0
1656181697532728291,,35330,,1656181697,526335532,"""mocap""",False,False,False,'',0.0,'',0.41526535153388977,'',0.0
1656181697583988606,,35331,,1656181697,576355100,"""mocap""",False,False,False,'',0.0,'',0.41526535153388977,'',0.0
1656181697591763394,,35332,,1656181697,586391859,"""mocap""",False,False,False,'',0.0,'',0.41526535153388977,'',0.0
1656181697609418586,,35333,,1656181697,596133031,"""mocap""",False,False,False,'',0.0,'',0.41526535153388977,'',0.0
1656181697633046022,,35334,,1656181697,606563201,"""mocap""",False,False,False,'',0.0,'',0.41526535153388977,'',0.0
1656181697644209831,,35335,,1656181697,606563201,"""mocap""",False,False,False,'',-0.007818842306733131,'',0.41526535153388977,'',0.0
1656181697659671565,,35336,,1656181697,606563201,"""mocap""",False,False,False,'',-0.04338816553354263,'',0.41526535153388977,'',0.0
1656181697673599685,,35337,,1656181697,606563201,"""mocap""",False,False,False,'',-0.07872860133647919,'',0.41526535153388977,'',0.0
1656181697681622314,,35338,,1656181697,606563201,"""mocap""",False,False,False,'',-0.08648792654275894,'',0.41526535153388977,'',0.0
1656181697688939146,,35339,,1656181697,606563201,"""mocap""",False,False,False,'',-0.11141391843557358,'',0.41526535153388977,'',0.0
1656181697696601068,,35340,,1656181697,606563201,"""mocap""",False,False,False,'',-0.12716147303581238,'',0.41526535153388977,'',0.0
1656181697703776842,,35341,,1656181697,606563201,"""mocap""",False,False,False,'',-0.13466903567314148,'',0.41526535153388977,'',0.0
1656181697711572525,,35342,,1656181697,606563201,"""mocap""",False,False,False,'',-0.15570391714572906,'',0.41526535153388977,'',0.0
1656181697718698315,,35343,,1656181697,606563201,"""mocap""",False,False,False,'',-0.17126834392547607,'',0.41526535153388977,'',0.0
1656181697733532843,,35344,,1656181697,606563201,"""mocap""",False,False,False,'',-0.20095522701740265,'',0.41526535153388977,'',0.0
1656181697741267918,,35345,,1656181697,606563201,"""mocap""",False,False,False,'',-0.21670278906822205,'',0.41526535153388977,'',0.0
1656181697748477452,,35346,,1656181697,606563201,"""mocap""",False,False,False,'',-0.23396098613739014,'',0.41526535153388977,'',0.0
1656181697763907538,,35347,,1656181697,756218671,"""mocap""",False,False,False,'',-0.26426586508750916,'',0.41526535153388977,'',0.0
1656181697771868983,,35348,,1656181697,766581993,"""mocap""",False,False,False,'',-0.27037718892097473,'',0.41526535153388977,'',0.0
1656181697778549232,,35349,,1656181697,776064443,"""mocap""",False,False,False,'',-0.2873149812221527,'',0.41526535153388977,'',0.0
1656181697787136123,,35350,,1656181697,776064443,"""mocap""",False,False,False,'',-0.2918698787689209,'',0.41526535153388977,'',0.0
1656181697796232713,,35351,,1656181697,786069649,"""mocap""",False,False,False,'',-0.298026978969574,'',0.41526535153388977,'',0.0
1656181697801734681,,35352,,1656181697,796078216,"""mocap""",False,False,False,'',-0.30432143807411194,'',0.41526535153388977,'',0.0
1656181697812373237,,35353,,1656181697,806421025,"""mocap""",False,False,False,'',-0.310112327337265,'',0.41526535153388977,'',0.0
1656181697824287196,,35354,,1656181697,816078709,"""mocap""",False,False,False,'',-0.31523942947387695,'',0.41526535153388977,'',0.0
1656181697824865793,,35355,,1656181697,816078709,"""mocap""",False,False,False,'',-0.31956541538238525,'',0.41526535153388977,'',0.0
1656181697831627771,,35356,,1656181697,826080971,"""mocap""",False,False,False,'',-0.3213736414909363,'',0.41526535153388977,'',0.0
1656181697842514329,,35357,,1656181697,826080971,"""mocap""",False,False,False,'',-0.3232734203338623,'',0.41526535153388977,'',0.0
1656181697857834110,,35358,,1656181697,846160089,"""mocap""",False,False,False,'',-0.32775965332984924,'',0.41526535153388977,'',0.0
1656181697869149920,,35359,,1656181697,866098373,"""mocap""",False,False,False,'',-0.32940763235092163,'',0.41526535153388977,'',0.0
1656181697902048636,,35360,,1656181697,896278154,"""mocap""",False,False,False,'',-0.3311929702758789,'',0.41526535153388977,'',0.0
1656181697952840051,,35361,,1656181697,946299067,"""mocap""",False,False,False,'',-0.3311929702758789,'',0.41526535153388977,'',0.0
1656181697977091845,,35362,,1656181697,966120966,"""mocap""",False,False,False,'',-0.3141636252403259,'',0.41526535153388977,'',0.0
1656181697983862431,,35363,,1656181697,976300222,"""mocap""",False,False,False,'',-0.28866544365882874,'',0.41526535153388977,'',0.0
1656181697989006316,,35364,,1656181697,986088051,"""mocap""",False,False,False,'',-0.2538285553455353,'',0.41526535153388977,'',0.0
1656181697998891169,,35365,,1656181697,986088051,"""mocap""",False,False,False,'',-0.026633504778146744,'',0.41526535153388977,'',0.0
1656181698008899319,,35366,,1656181697,996271819,"""mocap""",False,False,False,'',-0.008185064420104027,'',0.41526535153388977,'',0.0
1656181698011582799,,35367,,1656181698,8004880,"""mocap""",False,False,False,'',0.0,'',0.41526535153388977,'',0.0
1656181698028804163,,35368,,1656181698,16086325,"""mocap""",False,False,False,'',0.0,'',0.41526535153388977,'',0.0
1656181698037134474,,35369,,1656181698,16086325,"""mocap""",False,False,False,'',0.0,'',0.41526535153388977,'',0.0
1656181698041692689,,35370,,1656181698,37183243,"""mocap""",False,False,False,'',0.0,'',0.41526535153388977,'',0.0
1656181698049176882,,35371,,1656181698,37183243,"""mocap""",False,False,False,'',0.0,'',0.41526535153388977,'',0.0
1656181698086636499,,35372,,1656181698,37183243,"""mocap""",False,False,False,'',0.0,'',0.413434237241745,'',0.0
1656181698136784866,,35373,,1656181698,37183243,"""mocap""",False,False,False,'',0.0,'',0.413434237241745,'',0.0
1656181698161807769,,35374,,1656181698,37183243,"""mocap""",False,False,False,'',0.0,'',0.413434237241745,'',0.0
1656181698176679865,,35375,,1656181698,37183243,"""mocap""",False,False,False,'',0.0,'',0.413434237241745,'',0.0
1656181698183839222,,35376,,1656181698,37183243,"""mocap""",False,False,False,'',0.0,'',0.413434237241745,'',0.0
1656181698191466360,,35377,,1656181698,37183243,"""mocap""",False,False,False,'',0.0,'',0.413434237241745,'',0.0
1656181698198443444,,35378,,1656181698,37183243,"""mocap""",False,False,False,'',0.0,'',0.413434237241745,'',0.0
1656181698206490137,,35379,,1656181698,37183243,"""mocap""",False,False,False,'',0.0,'',0.413434237241745,'',0.0
1656181698213454741,,35380,,1656181698,37183243,"""mocap""",False,False,False,'',0.0,'',0.413434237241745,'',0.0
1656181698228892633,,35381,,1656181698,216278125,"""mocap""",False,False,False,'',0.0,'',0.413434237241745,'',0.0
1656181698236723197,,35382,,1656181698,226454437,"""mocap""",False,False,False,'',0.0,'',0.413434237241745,'',0.0
1656181698244009691,,35383,,1656181698,236058551,"""mocap""",False,False,False,'',0.015532394871115685,'',0.413434237241745,'',0.0
1656181698251691613,,35384,,1656181698,246079213,"""mocap""",False,False,False,'',0.021712392568588257,'',0.413434237241745,'',0.0
1656181698258493304,,35385,,1656181698,246079213,"""mocap""",False,False,False,'',0.040023498237133026,'',0.413434237241745,'',0.0
1656181698266460316,,35386,,1656181698,246079213,"""mocap""",False,False,False,'',0.046249277889728546,'',0.413434237241745,'',0.0
1656181698273574137,,35387,,1656181698,246079213,"""mocap""",False,False,False,'',0.06428571790456772,'',0.413434237241745,'',0.0
1656181698281534334,,35388,,1656181698,246079213,"""mocap""",False,False,False,'',0.0697103813290596,'',0.413434237241745,'',0.0
1656181698288568602,,35389,,1656181698,246079213,"""mocap""",False,False,False,'',0.07692038267850876,'',0.413434237241745,'',0.0
1656181698311591360,,35390,,1656181698,246079213,"""mocap""",False,False,False,'',0.10624103993177414,'',0.413434237241745,'',0.0
1656181698324636688,,35391,,1656181698,246079213,"""mocap""",False,False,False,'',0.11036103963851929,'',0.413434237241745,'',0.0
1656181698326835747,,35392,,1656181698,246079213,"""mocap""",False,False,False,'',0.1170903667807579,'',0.413434237241745,'',0.0
1656181698348410428,,35393,,1656181698,246079213,"""mocap""",False,False,False,'',0.15517747402191162,'',0.413434237241745,'',0.0
